{
  "cities": [
    {
      "city": "Split",
      "country": "Croatia",
      "affordability": 10,
      "nightlife": 8,
      "cuisine": 9,
      "safety": 8,
      "id": 1
    },
    {
      "city": "Galway",
      "country": "Ireland",
      "affordability": 7,
      "nightlife": 10,
      "cuisine": 7,
      "safety": 9,
      "id": 2
    },
    {
      "city": "Zurich",
      "country": "Switzerland",
      "affordability": 4,
      "nightlife": 7,
      "cuisine": 7,
      "safety": 9,
      "id": 3
    },
    {
      "city": "New Orleans",
      "country": "USA",
      "affordability": 9,
      "nightlife": 10,
      "cuisine": 10,
      "safety": 6,
      "id": 4
    },
    {
      "city": "Los Angeles",
      "country": "USA",
      "affordability": 5,
      "nightlife": 8,
      "cuisine": 8,
      "safety": 7,
      "id": 5
    },
    {
      "city": "Seattle",
      "country": "USA",
      "affordability": 6,
      "nightlife": 7,
      "cuisine": 8,
      "safety": 8,
      "id": 6
    },
    {
      "city": "New York",
      "country": "USA",
      "affordability": 3,
      "nightlife": 10,
      "cuisine": 9,
      "safety": 8,
      "id": 7
    },
    {
      "city": "Las Vegas",
      "country": "USA",
      "affordability": 8,
      "nightlife": 10,
      "cuisine": 8,
      "safety": 7,
      "id": 8
    },
    {
      "city": "London",
      "country": "Great Britain",
      "affordability": 6,
      "nightlife": 8,
      "cuisine": 6,
      "safety": 7,
      "id": 9
    },
    {
      "city": "Austin",
      "country": "USA",
      "affordability": 7,
      "nightlife": 8,
      "cuisine": 8,
      "safety": 9,
      "id": 10
    },
    {
      "city": "Kansas City",
      "country": "USA",
      "affordability": 9,
      "nightlife": 8,
      "cuisine": 8,
      "safety": 7,
      "id": 11
    },
    {
      "city": "Berlin",
      "country": "Germany",
      "affordability": 7,
      "nightlife": 10,
      "cuisine": 8,
      "safety": 8,
      "id": 12
    },
    {
      "city": "Milan",
      "country": "Italy",
      "affordability": 8,
      "nightlife": 8,
      "cuisine": 9,
      "safety": 7,
      "id": 13
    },
    {
      "city": "Denver",
      "country": "USA",
      "affordability": 6,
      "nightlife": 8,
      "cuisine": 7,
      "safety": 9,
      "id": 14
    },
    {
      "city": "Miami",
      "country": "USA",
      "affordability": 7,
      "nightlife": 10,
      "cuisine": 8,
      "safety": 6,
      "id": 15
    },
    {
      "city": "Mexico City",
      "country": "Mexico",
      "affordability": 8,
      "nightlife": 8,
      "cuisine": 10,
      "safety": 7,
      "id": 16
    }
  ],
  "users": [
    {
      "name": "Kathy Barnes",
      "location": "Los Angeles",
      "city_visited": "Split, Seattle, New York",
      "city_to_visit": "Tokyo, Sydney, Barcelona",
      "id": 1
    },
    {
      "name": "Rex Fieldman",
      "location": "Las Vegas",
      "city_visited": "Galway, London, Austin",
      "city_to_visit": "Delhi, Johannesburg, Paris",
      "id": 2
    },
    {
      "name": "Ida McHugh",
      "location": "Kansas City",
      "city_visited": "Zurich, Berlin, Milan",
      "city_to_visit": "Rome, Boston, Reykjavik",
      "id": 3
    },
    {
      "name": "Chris O'Brien",
      "location": "Buffalo",
      "city_visited": "Denver, Miami, Mexico City",
      "city_to_visit": "Bogota, Prague, DC",
      "id": 4
    }
  ]
}
